,City,Country,Lat,Lng,Max Temp,Humidity,Cloudiness,Wind Speed,Current Description,Date
0,Ketchikan,US,55.3422,-131.6461,43.27,87,100,10.36,light rain,2022-05-17 10:50:43
1,Mataura,NZ,-46.1927,168.8643,48.47,95,25,2.77,scattered clouds,2022-05-17 10:50:43
2,Stanislav,UA,46.5691,32.1478,66.87,53,87,9.8,overcast clouds,2022-05-17 10:50:43
3,Qaanaaq,GL,77.484,-69.3632,19.65,72,24,7.43,few clouds,2022-05-17 10:50:44
4,Kavaratti,IN,10.5669,72.642,78.96,85,100,21.21,overcast clouds,2022-05-17 10:50:44
5,Aklavik,CA,68.2191,-135.0107,28.31,91,100,11.14,overcast clouds,2022-05-17 10:50:45
6,Lebu,CL,-37.6167,-73.65,50.04,58,7,3.11,clear sky,2022-05-17 10:50:45
7,Estelle,US,29.8458,-90.1067,78.01,85,0,1.01,clear sky,2022-05-17 10:50:45
8,Vaini,TO,-21.2,-175.2,73.56,73,20,8.05,few clouds,2022-05-17 10:50:46
9,Sivaki,RU,52.6333,126.75,48.02,36,54,3.96,broken clouds,2022-05-17 10:50:46
10,Chingirlau,KZ,51.095,54.0814,63.12,38,53,20.87,broken clouds,2022-05-17 10:50:46
11,Cape Town,ZA,-33.9258,18.4232,83.12,35,0,4.61,clear sky,2022-05-17 10:50:03
12,Klaksvik,FO,62.2266,-6.589,50.92,96,100,25.05,light rain,2022-05-17 10:50:47
13,Mar Del Plata,AR,-38.0023,-57.5575,54.95,79,100,23.02,overcast clouds,2022-05-17 10:49:10
14,Kalengwa,ZM,-13.4659,25.0027,73.87,43,98,5.79,overcast clouds,2022-05-17 10:50:47
15,Lida,BY,53.8833,25.2997,51.04,49,38,17.11,scattered clouds,2022-05-17 10:50:48
16,Bredasdorp,ZA,-34.5322,20.0403,78.94,24,41,4.05,scattered clouds,2022-05-17 10:50:48
17,Dikson,RU,73.5069,80.5464,33.98,100,100,5.23,overcast clouds,2022-05-17 10:50:48
18,Buin,CL,-33.7333,-70.75,51.06,37,0,1.25,clear sky,2022-05-17 10:50:49
19,Severo-Kurilsk,RU,50.6789,156.125,41.59,81,19,6.73,few clouds,2022-05-17 10:50:49
20,Bambous Virieux,MU,-20.3428,57.7575,79.21,69,75,12.66,light rain,2022-05-17 10:50:49
21,Ushuaia,AR,-54.8,-68.3,38.86,93,75,4.61,broken clouds,2022-05-17 10:47:16
22,Oranjemund,NA,-28.55,16.4333,86.77,24,0,12.28,clear sky,2022-05-17 10:50:50
23,Wabana,CA,47.6332,-52.9481,41.09,84,100,4.61,overcast clouds,2022-05-17 10:50:50
24,Shingu,JP,33.7333,135.9833,59.7,88,100,3.04,overcast clouds,2022-05-17 10:50:51
25,Barrow,US,71.2906,-156.7887,15.82,79,100,5.75,light snow,2022-05-17 10:50:51
26,Touros,BR,-5.1989,-35.4608,82.06,84,67,12.62,broken clouds,2022-05-17 10:50:51
27,New Norfolk,AU,-42.7826,147.0587,49.91,87,95,1.99,light rain,2022-05-17 10:50:52
28,Byron Bay,AU,-28.65,153.6167,67.71,85,97,4.94,light rain,2022-05-17 10:50:52
29,Albany,US,42.6001,-73.9662,53.78,89,11,4.85,few clouds,2022-05-17 10:50:51
30,Presidencia Roque Saenz Pena,AR,-26.7852,-60.4388,41.32,79,0,6.02,clear sky,2022-05-17 10:50:53
31,Willowmore,ZA,-33.2926,23.4895,76.15,23,0,9.93,clear sky,2022-05-17 10:50:53
32,Victoria,HK,22.2855,114.1577,79.18,78,70,11.01,broken clouds,2022-05-17 10:46:42
33,Goderich,CA,43.7501,-81.7165,45.91,76,11,14.97,few clouds,2022-05-17 10:46:16
34,Kaitangata,NZ,-46.2817,169.8464,45.84,91,24,5.03,few clouds,2022-05-17 10:50:53
35,Castro,BR,-24.7911,-50.0119,37.83,82,12,9.57,few clouds,2022-05-17 10:50:54
36,Pinega,RU,64.7001,43.3936,42.4,56,100,11.05,overcast clouds,2022-05-17 10:50:54
37,Mahebourg,MU,-20.4081,57.7,79.25,69,75,12.66,broken clouds,2022-05-17 10:50:54
38,Nemuro,JP,43.3236,145.575,44.58,98,90,11.72,overcast clouds,2022-05-17 10:50:55
39,Shalya,RU,57.2471,58.7298,56.97,60,95,6.8,light rain,2022-05-17 10:50:55
40,Yangjiang,CN,21.85,111.9667,73.47,75,82,6.49,broken clouds,2022-05-17 10:50:55
41,Butaritari,KI,3.0707,172.7902,81.7,77,72,12.73,light rain,2022-05-17 10:50:56
42,Navalcarnero,ES,40.2891,-4.012,79.66,41,4,11.01,clear sky,2022-05-17 10:50:56
43,Pingshan,CN,22.9938,114.7131,69.17,85,96,5.26,overcast clouds,2022-05-17 10:51:57
44,Sayyan,YE,15.1718,44.3244,75.6,5,4,10.87,clear sky,2022-05-17 10:51:57
45,Yar-Sale,RU,66.8333,70.8333,37.72,100,100,9.62,overcast clouds,2022-05-17 10:51:57
46,Iwanai,JP,42.9744,140.5089,50.16,79,67,4.68,broken clouds,2022-05-17 10:51:58
47,Punta Arenas,CL,-53.15,-70.9167,42.91,87,100,6.91,overcast clouds,2022-05-17 10:51:58
48,Atuona,PF,-9.8,-139.0333,78.3,73,11,17.34,few clouds,2022-05-17 10:51:58
49,Poum,NC,-20.2333,164.0167,77.49,78,99,10.76,overcast clouds,2022-05-17 10:51:59
50,Esperance,AU,-33.8667,121.9,62.56,66,0,13.35,clear sky,2022-05-17 10:51:59
51,Vinh,VN,18.6667,105.6667,74.97,75,100,4.99,overcast clouds,2022-05-17 10:48:21
52,Kununurra,AU,-15.7667,128.7333,76.98,57,1,0.0,clear sky,2022-05-17 10:51:59
53,Metro,ID,-5.1131,105.3067,79.36,83,33,7.81,scattered clouds,2022-05-17 10:52:00
54,Muravlenko,RU,63.7898,74.523,61.84,41,99,0.87,overcast clouds,2022-05-17 10:52:00
55,Fort Nelson,CA,58.8053,-122.7002,42.39,87,75,6.91,light intensity drizzle rain,2022-05-17 10:52:00
56,Hilo,US,19.7297,-155.09,73.27,96,100,5.99,moderate rain,2022-05-17 10:52:01
57,Bluff,NZ,-46.6,168.3333,48.79,83,10,9.75,clear sky,2022-05-17 10:52:01
58,Geraldton,AU,-28.7667,114.6,63.01,82,0,5.75,clear sky,2022-05-17 10:52:01
59,Smithers,CA,54.7804,-127.1743,32.32,80,75,3.44,broken clouds,2022-05-17 10:52:02
60,Pisco,PE,-13.7,-76.2167,57.02,88,64,3.44,mist,2022-05-17 10:52:02
61,La Palma,US,33.8464,-118.0467,62.78,83,100,6.91,overcast clouds,2022-05-17 10:48:36
62,Faanui,PF,-16.4833,-151.75,80.96,75,84,14.83,broken clouds,2022-05-17 10:52:03
63,Avarua,CK,-21.2078,-159.775,77.79,78,4,12.37,light rain,2022-05-17 10:52:03
64,Iqaluit,CA,63.7506,-68.5145,24.53,79,75,10.36,broken clouds,2022-05-17 10:52:03
65,Puerto Ayora,EC,-0.7393,-90.3518,71.55,98,75,4.41,broken clouds,2022-05-17 10:52:04
66,Ixtapa,MX,20.7,-105.2,72.27,70,100,1.39,overcast clouds,2022-05-17 10:47:59
67,Labuhan,ID,-6.8844,112.2051,82.45,76,99,3.78,overcast clouds,2022-05-17 10:52:04
68,Roswell,US,34.0232,-84.3616,59.56,92,0,0.0,clear sky,2022-05-17 10:52:04
69,Kenitra,MA,34.261,-6.5802,74.16,59,1,10.96,clear sky,2022-05-17 10:52:05
70,Bathsheba,BB,13.2167,-59.5167,81.21,83,40,23.02,scattered clouds,2022-05-17 10:52:05
71,Busselton,AU,-33.65,115.3333,63.39,85,100,7.09,moderate rain,2022-05-17 10:52:05
72,Hermanus,ZA,-34.4187,19.2345,82.8,46,42,0.56,scattered clouds,2022-05-17 10:52:06
73,Saint-Philippe,RE,-21.3585,55.7679,76.59,77,67,13.78,broken clouds,2022-05-17 10:52:06
74,Salym,RU,60.0625,71.4789,58.37,73,95,5.06,light rain,2022-05-17 10:52:07
75,Port Alfred,ZA,-33.5906,26.891,84.58,34,0,13.13,clear sky,2022-05-17 10:52:07
76,Kapaa,US,22.0752,-159.319,70.12,96,0,5.75,clear sky,2022-05-17 10:52:07
77,Coquimbo,CL,-29.9533,-71.3436,49.73,93,100,6.91,overcast clouds,2022-05-17 10:52:08
78,Gari,RU,59.4307,62.3497,65.01,47,100,3.96,overcast clouds,2022-05-17 10:52:08
79,Rikitea,PF,-23.1203,-134.9692,76.39,79,35,23.22,light rain,2022-05-17 10:52:08
80,Asau,RO,46.4333,26.4,72.95,55,100,1.66,overcast clouds,2022-05-17 10:52:09
81,Havre-Saint-Pierre,CA,50.2334,-63.5986,41.36,93,100,24.16,mist,2022-05-17 10:52:09
82,Evensk,RU,61.95,159.2333,34.56,99,100,4.74,overcast clouds,2022-05-17 10:52:09
83,Gorontalo,ID,0.5412,123.0595,77.49,94,71,2.04,broken clouds,2022-05-17 10:52:10
84,Sharkan,RU,57.2989,53.8712,56.8,70,100,5.68,light rain,2022-05-17 10:52:10
85,Maiduguri,NG,11.8464,13.1603,101.34,21,33,2.82,scattered clouds,2022-05-17 10:52:11
86,San Patricio,US,28.017,-97.5169,78.69,96,44,6.15,scattered clouds,2022-05-17 10:52:11
87,Kushiro,JP,42.975,144.3747,50.95,93,75,4.61,broken clouds,2022-05-17 10:53:11
88,Odweyne,SO,9.4092,45.064,91.78,22,24,16.4,few clouds,2022-05-17 10:53:12
89,Kirovskiy,RU,45.0917,133.5136,53.65,67,42,3.24,scattered clouds,2022-05-17 10:53:12
90,Harindanga,IN,22.0383,88.3214,90.43,62,68,18.23,broken clouds,2022-05-17 10:53:12
91,Hofn,IS,64.2539,-15.2082,46.42,76,85,14.94,overcast clouds,2022-05-17 10:53:13
92,Petropavlovsk-Kamchatskiy,RU,53.0452,158.6483,43.39,76,75,4.47,broken clouds,2022-05-17 10:53:13
93,Longyearbyen,SJ,78.2186,15.6401,31.84,64,40,8.05,scattered clouds,2022-05-17 10:53:13
94,Sola,VU,-13.8833,167.55,80.94,79,93,15.9,overcast clouds,2022-05-17 10:53:14
95,Yellowknife,CA,62.456,-114.3525,37.92,75,20,15.01,few clouds,2022-05-17 10:53:14
96,Alice Springs,AU,-23.7,133.8833,69.22,32,36,6.91,scattered clouds,2022-05-17 10:53:15
97,Cidreira,BR,-30.1811,-50.2056,53.24,76,87,23.09,overcast clouds,2022-05-17 10:53:15
98,Hobart,AU,-42.8794,147.3294,50.25,77,75,19.57,broken clouds,2022-05-17 10:53:15
99,Watsa,CD,3.0372,29.5355,88.99,37,45,3.62,scattered clouds,2022-05-17 10:53:16
100,Grand Gaube,MU,-20.0064,57.6608,79.38,63,13,5.99,few clouds,2022-05-17 10:53:16
101,Tiznit,MA,29.5833,-9.5,83.75,24,0,2.33,clear sky,2022-05-17 10:53:16
102,Provideniya,RU,64.3833,-173.3,31.84,74,21,3.74,few clouds,2022-05-17 10:53:17
103,Cherskiy,RU,68.75,161.3,35.71,94,100,1.32,overcast clouds,2022-05-17 10:53:17
104,Ponta Do Sol,PT,32.6667,-17.1,79.72,68,14,4.59,few clouds,2022-05-17 10:53:17
105,Carnarvon,AU,-24.8667,113.6333,72.52,57,0,10.13,clear sky,2022-05-17 10:53:18
106,Ajdabiya,LY,30.7554,20.2263,88.81,12,9,8.77,clear sky,2022-05-17 10:53:18
107,Chifeng,CN,42.2683,118.9636,60.87,51,100,7.56,overcast clouds,2022-05-17 10:53:18
108,Kalmunai,LK,7.4167,81.8167,88.52,61,92,15.37,overcast clouds,2022-05-17 10:53:19
109,Portland,US,45.5234,-122.6762,48.78,84,97,1.97,overcast clouds,2022-05-17 10:52:42
110,Barrhead,GB,55.7992,-4.3929,62.85,72,100,10.36,overcast clouds,2022-05-17 10:53:19
111,Greensburg,US,40.3015,-79.5389,52.25,94,0,11.5,clear sky,2022-05-17 10:52:26
112,Georgetown,MY,5.4112,100.3354,89.53,66,20,9.22,few clouds,2022-05-17 10:53:20
113,Hami,CN,42.8,93.45,82.83,14,99,17.56,overcast clouds,2022-05-17 10:53:20
114,Saskylakh,RU,71.9167,114.0833,19.99,96,51,4.36,broken clouds,2022-05-17 10:48:34
115,Hambantota,LK,6.1241,81.1185,86.34,79,40,18.41,scattered clouds,2022-05-17 10:53:20
116,Te Anau,NZ,-45.4167,167.7167,46.29,91,19,3.74,few clouds,2022-05-17 10:53:21
117,San Cataldo,IT,37.4841,13.9854,80.53,68,0,4.0,clear sky,2022-05-17 10:53:21
118,Kathu,TH,7.9178,98.3332,86.7,99,100,15.48,overcast clouds,2022-05-17 10:53:21
119,Tuktoyaktuk,CA,69.4541,-133.0374,31.05,97,100,6.6,overcast clouds,2022-05-17 10:53:22
120,Viedma,AR,-40.8135,-62.9967,42.44,85,16,5.21,few clouds,2022-05-17 10:53:22
121,Canon City,US,38.441,-105.2424,63.01,33,0,12.66,clear sky,2022-05-17 10:53:22
122,Kodiak,US,57.79,-152.4072,44.35,66,80,4.63,broken clouds,2022-05-17 10:53:23
123,Bam,IR,29.106,58.357,101.41,5,0,13.96,clear sky,2022-05-17 10:53:23
124,Pyshchug,RU,58.8873,45.7134,52.27,83,99,12.39,light rain,2022-05-17 10:53:24
125,Dunedin,NZ,-45.8742,170.5036,54.81,74,55,3.0,broken clouds,2022-05-17 10:53:24
126,Omboue,GA,-1.5746,9.2618,78.62,88,100,2.95,light rain,2022-05-17 10:53:24
127,Kushalgarh,IN,23.199,74.4507,104.09,12,7,13.94,clear sky,2022-05-17 10:53:25
128,Port Elizabeth,ZA,-33.918,25.5701,89.89,23,0,8.05,clear sky,2022-05-17 10:53:25
129,Narsaq,GL,60.9167,-46.05,45.95,69,88,0.76,overcast clouds,2022-05-17 10:53:25
130,Iskateley,RU,67.6803,53.1512,33.73,92,100,13.15,overcast clouds,2022-05-17 10:53:26
131,Sorland,NO,67.667,12.6934,39.7,76,100,22.86,light rain,2022-05-17 10:53:26
132,Swan Hill,AU,-35.3378,143.5544,55.42,61,96,7.34,overcast clouds,2022-05-17 10:53:26
133,Nanning,CN,22.8167,108.3167,79.25,67,85,6.22,overcast clouds,2022-05-17 10:53:27
134,Spassk,RU,52.747,87.7545,75.88,31,60,1.68,broken clouds,2022-05-17 10:54:27
135,Uruzgan,AF,32.8333,66.0,87.1,8,0,10.22,clear sky,2022-05-17 10:54:28
136,Ostersund,SE,63.1792,14.6357,43.25,36,0,4.61,clear sky,2022-05-17 10:54:28
137,Isangel,VU,-19.55,169.2667,76.62,80,17,13.38,few clouds,2022-05-17 10:52:47
138,Polovinnoye,RU,54.7914,65.9864,64.83,41,76,16.17,broken clouds,2022-05-17 10:54:28
139,Tocopilla,CL,-22.092,-70.1979,63.21,62,34,6.4,scattered clouds,2022-05-17 10:54:29
140,Tottori,JP,35.5,134.2333,64.47,77,20,1.14,few clouds,2022-05-17 10:50:07
141,Henties Bay,NA,-22.116,14.2845,86.14,26,3,15.97,clear sky,2022-05-17 10:54:29
142,Cayenne,GF,4.9333,-52.3333,81.09,1,40,5.01,scattered clouds,2022-05-17 10:54:29
143,Coahuayana,MX,18.7333,-103.6833,71.78,64,92,3.31,overcast clouds,2022-05-17 10:54:30
144,Nanortalik,GL,60.1432,-45.2371,39.22,80,73,6.24,broken clouds,2022-05-17 10:54:30
145,Vestmanna,FO,62.1564,-7.1664,47.32,93,100,26.46,light rain,2022-05-17 10:54:31
146,Mitu,CO,1.1983,-70.1733,71.98,100,100,0.47,light rain,2022-05-17 10:54:31
147,Obo,CF,5.3998,26.4869,91.51,43,46,3.22,scattered clouds,2022-05-17 10:54:32
148,Chuy,UY,-33.6971,-53.4616,51.04,89,60,17.54,broken clouds,2022-05-17 10:54:32
149,Tatawin,TN,32.9297,10.4518,86.56,19,9,5.82,clear sky,2022-05-17 10:54:33
150,Caravelas,BR,-17.7125,-39.2481,76.64,80,5,6.17,clear sky,2022-05-17 10:54:34
151,Westport,US,41.1415,-73.3579,58.75,81,0,1.01,clear sky,2022-05-17 10:54:34
152,Nikolskoye,RU,59.7035,30.7861,44.87,71,100,10.31,overcast clouds,2022-05-17 10:54:34
153,Jamestown,US,42.097,-79.2353,51.39,86,100,11.5,overcast clouds,2022-05-17 10:52:18
154,Krasnoselkup,RU,65.7,82.4667,53.98,80,100,8.3,overcast clouds,2022-05-17 10:54:35
155,Belmonte,BR,-15.8631,-38.8828,77.56,82,19,6.53,few clouds,2022-05-17 10:54:35
156,Dharchula,IN,29.85,80.5333,77.0,46,99,1.77,overcast clouds,2022-05-17 10:54:36
157,Tukums,LV,56.9669,23.1553,47.55,43,71,15.66,broken clouds,2022-05-17 10:54:36
158,Torbay,CA,47.6666,-52.7314,41.29,85,100,4.61,overcast clouds,2022-05-17 10:54:36
159,Tamiahua,MX,21.2667,-97.45,73.67,90,75,7.02,broken clouds,2022-05-17 10:54:37
160,Hasaki,JP,35.7333,140.8333,59.4,80,100,9.75,light rain,2022-05-17 10:54:37
161,San Quintin,MX,30.4833,-115.95,59.2,87,91,14.36,overcast clouds,2022-05-17 10:54:37
162,Port Lincoln,AU,-34.7333,135.8667,57.36,70,22,7.27,few clouds,2022-05-17 10:54:38
163,Kirakira,SB,-10.4544,161.9205,79.54,82,43,5.26,scattered clouds,2022-05-17 10:54:38
164,Marsh Harbour,BS,26.5412,-77.0636,76.6,82,73,5.21,broken clouds,2022-05-17 10:54:38
165,Lorengau,PG,-2.0226,147.2712,82.9,75,31,7.54,scattered clouds,2022-05-17 10:54:39
166,Marystown,CA,47.1666,-55.1483,44.85,100,98,5.99,overcast clouds,2022-05-17 10:54:39
167,Zabol,AF,32.25,67.25,85.59,8,0,17.22,clear sky,2022-05-17 10:54:39
168,Zakamensk,RU,50.3741,103.2863,57.74,66,94,3.06,overcast clouds,2022-05-17 10:54:40
169,Tuatapere,NZ,-46.1333,167.6833,46.26,91,15,5.35,few clouds,2022-05-17 10:54:40
170,Escarcega,MX,18.6089,-90.7454,71.28,78,74,3.27,broken clouds,2022-05-17 10:54:40
171,Mulchen,CL,-37.7167,-72.2333,41.49,63,8,2.91,clear sky,2022-05-17 10:54:41
172,Souillac,MU,-20.5167,57.5167,77.38,69,75,12.66,light rain,2022-05-17 10:54:41
173,Zhigansk,RU,66.7697,123.3711,31.24,87,100,3.8,overcast clouds,2022-05-17 10:54:42
174,Anahuac,MX,27.2333,-100.15,71.31,80,11,12.1,few clouds,2022-05-17 10:49:49
175,Bosaso,SO,11.2842,49.1816,89.58,74,0,13.8,clear sky,2022-05-17 10:54:42
176,Muisne,EC,0.6,-80.0333,76.37,88,100,8.95,overcast clouds,2022-05-17 10:54:42
177,East London,ZA,-33.0153,27.9116,88.74,33,0,9.22,clear sky,2022-05-17 10:54:43
178,San Blas,MX,21.5167,-105.2667,71.38,64,100,2.62,overcast clouds,2022-05-17 10:54:43
179,Richards Bay,ZA,-28.783,32.0377,77.9,56,7,10.8,clear sky,2022-05-17 10:50:46
180,Poso,ID,-1.3959,120.7524,78.85,88,98,0.4,overcast clouds,2022-05-17 10:55:43
181,Guerrero Negro,MX,27.9769,-114.0611,59.63,84,94,16.58,overcast clouds,2022-05-17 10:55:44
182,Shillong,IN,25.5689,91.8831,67.71,92,76,5.99,broken clouds,2022-05-17 10:55:44
183,Hithadhoo,MV,-0.6,73.0833,84.56,76,70,17.34,broken clouds,2022-05-17 10:55:45
184,Udachnyy,RU,66.4167,112.4,34.3,81,100,6.53,overcast clouds,2022-05-17 10:55:45
185,Chitose,JP,42.8194,141.6522,57.11,87,75,10.36,broken clouds,2022-05-17 10:55:04
186,Vilyuysk,RU,63.7553,121.6247,37.15,93,100,3.87,light rain,2022-05-17 10:55:45
187,Spearfish,US,44.4908,-103.8594,61.3,64,20,6.91,few clouds,2022-05-17 10:55:46
188,Mbanza-Ngungu,CD,-5.25,14.8667,83.5,56,13,2.82,few clouds,2022-05-17 10:55:46
189,Nakambala,ZM,-15.8324,27.7799,73.18,41,26,9.46,scattered clouds,2022-05-17 10:55:46
190,Tongliao,CN,43.6125,122.2653,70.57,26,100,11.61,overcast clouds,2022-05-17 10:55:47
191,Almaznyy,RU,48.0448,40.045,60.42,39,54,17.29,broken clouds,2022-05-17 10:55:47
192,Pontes E Lacerda,BR,-15.2261,-59.3353,60.87,59,61,6.53,broken clouds,2022-05-17 10:52:39
193,Laukaa,RU,58.7372,29.8453,53.17,44,100,11.63,overcast clouds,2022-05-17 10:55:47
194,Bintulu,MY,3.1667,113.0333,84.61,79,20,2.3,few clouds,2022-05-17 10:55:48
195,Luoyang,CN,34.6836,112.4536,82.72,15,1,6.46,clear sky,2022-05-17 10:55:48
196,Tasiilaq,GL,65.6145,-37.6368,38.16,99,100,3.69,overcast clouds,2022-05-17 10:55:48
197,Tygda,RU,53.1167,126.3333,47.43,37,60,2.51,broken clouds,2022-05-17 10:55:49
198,Saint George,US,37.1041,-113.5841,70.79,25,0,6.91,clear sky,2022-05-17 10:55:49
199,Oban,GB,56.4127,-5.4706,60.39,77,75,14.97,light intensity drizzle,2022-05-17 10:55:49
200,Baykit,RU,61.67,96.37,58.68,79,100,3.33,light rain,2022-05-17 10:55:50
201,Tilichiki,RU,60.4667,166.1,32.2,100,100,1.03,light snow,2022-05-17 10:55:50
202,Murwillumbah,AU,-28.3167,153.4,69.98,83,100,5.75,overcast clouds,2022-05-17 10:55:51
203,Cairns,AU,-16.9167,145.7667,77.07,94,71,0.0,broken clouds,2022-05-17 10:52:28
204,Tual,ID,-5.6667,132.75,84.09,70,68,15.39,broken clouds,2022-05-17 10:55:51
205,Karratha,AU,-20.7377,116.8463,72.97,88,99,6.51,light rain,2022-05-17 10:55:51
206,Talnakh,RU,69.4865,88.3972,46.56,87,56,8.9,broken clouds,2022-05-17 10:55:52
207,Joshimath,IN,30.5667,79.5667,68.92,66,96,4.76,overcast clouds,2022-05-17 10:55:52
208,Cuamba,MZ,-14.8031,36.5372,78.42,49,30,7.49,scattered clouds,2022-05-17 10:55:52
209,Zhezkazgan,KZ,47.8043,67.7144,84.18,18,75,22.37,broken clouds,2022-05-17 10:55:53
210,Aleksandriya,RU,45.0947,43.2456,64.31,58,97,16.02,overcast clouds,2022-05-17 10:55:53
211,Kadiri,IN,14.1167,78.1667,90.46,47,86,8.16,overcast clouds,2022-05-17 10:55:53
212,Wahiawa,US,21.5028,-158.0236,71.87,87,75,0.0,broken clouds,2022-05-17 10:55:54
213,Sile,TR,41.1754,29.6133,77.67,59,4,3.0,clear sky,2022-05-17 10:55:25
214,Ribeira Grande,PT,38.5167,-28.7,61.2,72,40,25.32,scattered clouds,2022-05-17 10:55:54
215,Sisophon,KH,13.5859,102.9737,81.54,78,99,5.86,overcast clouds,2022-05-17 10:55:54
216,Saint-Pierre,RE,-21.3393,55.4781,78.91,65,75,23.02,broken clouds,2022-05-17 10:55:55
217,Kitangari,TZ,-10.65,39.3333,81.45,47,18,6.46,few clouds,2022-05-17 10:55:55
218,Kahului,US,20.8947,-156.47,73.85,87,33,1.01,scattered clouds,2022-05-17 10:55:56
219,Christchurch,NZ,-43.5333,172.6333,52.0,90,75,3.44,broken clouds,2022-05-17 10:52:13
220,Vestmannaeyjar,IS,63.4427,-20.2734,47.39,76,75,28.77,broken clouds,2022-05-17 10:55:56
221,Seoul,KR,37.5683,126.9778,73.0,52,0,9.22,clear sky,2022-05-17 10:55:56
222,Alekseyevsk,RU,57.8406,108.3492,56.93,77,100,4.29,overcast clouds,2022-05-17 10:55:57
223,Inirida,CO,3.8653,-67.9239,72.54,99,100,1.81,overcast clouds,2022-05-17 10:55:57
224,Alta Gracia,AR,-31.6529,-64.4283,40.53,57,0,4.0,clear sky,2022-05-17 10:55:57
225,Vieste,IT,41.8825,16.175,72.07,71,53,6.33,broken clouds,2022-05-17 10:55:58
226,Suicheng,CN,33.8963,117.9331,75.97,28,6,12.5,clear sky,2022-05-17 10:55:58
227,Tarnos,FR,43.5417,-1.4628,85.68,44,0,8.05,clear sky,2022-05-17 10:55:58
228,Kavieng,PG,-2.5744,150.7967,82.58,76,26,7.56,scattered clouds,2022-05-17 10:56:59
229,Salalah,OM,17.0151,54.0924,87.6,57,3,10.31,clear sky,2022-05-17 10:56:59
230,Saint-Francois,FR,46.4154,3.9054,81.68,53,0,6.91,clear sky,2022-05-17 10:56:59
231,Kupang,ID,-10.1667,123.5833,79.84,75,24,7.76,few clouds,2022-05-17 10:57:00
232,Hualmay,PE,-11.0964,-77.6139,62.17,90,97,2.82,overcast clouds,2022-05-17 10:57:00
233,Doha,QA,25.2867,51.5333,102.18,13,0,19.57,dust,2022-05-17 10:57:00
234,Itarema,BR,-2.9248,-39.9167,80.13,84,61,10.31,broken clouds,2022-05-17 10:57:01
235,Mananjary,MG,-21.2167,48.3333,72.45,78,97,9.84,light rain,2022-05-17 10:57:01
236,Bilibino,RU,68.0546,166.4372,35.19,99,100,1.9,overcast clouds,2022-05-17 10:57:02
237,Erzin,TR,36.9559,36.2,74.84,62,3,7.81,clear sky,2022-05-17 10:57:02
238,Lagos,NG,6.5833,3.75,77.32,61,99,6.91,overcast clouds,2022-05-17 10:54:14
239,Sao Joao Da Barra,BR,-21.6403,-41.0511,69.89,86,97,5.7,overcast clouds,2022-05-17 10:57:02
240,Shimoda,JP,34.6667,138.95,58.1,86,100,5.23,light rain,2022-05-17 10:57:03
241,Mhlambanyatsi,SZ,-26.45,31.0167,63.59,49,0,5.26,clear sky,2022-05-17 10:55:12
242,Vila Franca Do Campo,PT,37.7167,-25.4333,63.19,68,94,18.14,light rain,2022-05-17 10:57:03
243,Champerico,GT,14.3,-91.9167,81.36,76,42,6.87,scattered clouds,2022-05-17 10:57:03
244,Kamenka,RU,51.3223,42.7678,53.8,59,50,17.25,light rain,2022-05-17 10:57:04
245,Samarai,PG,-10.6167,150.6667,81.9,71,1,3.4,clear sky,2022-05-17 10:57:04
246,Nicolas Bravo,MX,18.45,-88.9167,70.3,98,86,1.5,overcast clouds,2022-05-17 10:57:04
247,Chokurdakh,RU,70.6333,147.9167,30.25,85,100,4.47,overcast clouds,2022-05-17 10:57:05
248,Port-Gentil,GA,-0.7193,8.7815,85.96,79,40,10.36,scattered clouds,2022-05-17 10:57:05
249,Norman Wells,CA,65.282,-126.8329,46.44,61,20,6.91,few clouds,2022-05-17 10:57:05
250,Valparaiso,CL,-33.0393,-71.6273,53.47,85,100,2.3,overcast clouds,2022-05-17 10:57:06
251,Arraial Do Cabo,BR,-22.9661,-42.0278,67.86,94,75,3.44,broken clouds,2022-05-17 10:57:06
252,Wuan,CN,31.6836,112.0044,71.19,60,100,8.41,overcast clouds,2022-05-17 10:57:07
253,Yerbogachen,RU,61.2767,108.0108,63.12,47,96,0.69,overcast clouds,2022-05-17 10:57:07
254,Bethel,US,41.3712,-73.414,56.48,82,1,1.99,clear sky,2022-05-17 10:57:07
255,Makakilo City,US,21.3469,-158.0858,73.69,92,52,4.72,broken clouds,2022-05-17 10:57:08
256,Marzuq,YE,14.4,46.4667,90.59,8,5,13.89,clear sky,2022-05-17 10:57:08
257,Harper,LR,4.375,-7.7169,80.58,82,99,5.46,overcast clouds,2022-05-17 10:57:08
258,Ola,RU,59.5833,151.2833,39.15,98,100,2.77,overcast clouds,2022-05-17 10:57:09
259,Niteroi,BR,-22.8833,-43.1036,71.65,90,40,4.61,scattered clouds,2022-05-17 10:57:09
260,Vikulovo,RU,56.8167,70.6107,58.64,66,96,18.28,light rain,2022-05-17 10:57:09
261,Port Augusta,AU,-32.5,137.7667,57.34,56,0,5.48,clear sky,2022-05-17 10:57:10
262,Codrington,AU,-38.2667,141.9667,52.39,83,79,15.35,broken clouds,2022-05-17 10:57:10
263,Huilong,CN,31.8111,121.655,67.87,57,18,14.54,few clouds,2022-05-17 10:57:10
264,Le Port,RE,-20.9373,55.2919,79.25,59,62,4.07,light rain,2022-05-17 10:57:11
265,Nantucket,US,41.2835,-70.0995,59.05,92,71,16.71,broken clouds,2022-05-17 10:57:11
266,Bengkulu,ID,-3.8004,102.2655,81.54,81,23,7.14,few clouds,2022-05-17 10:57:12
267,Ninghai,CN,29.2892,121.4247,61.02,68,98,3.62,overcast clouds,2022-05-17 10:57:12
268,Lompoc,US,34.6391,-120.4579,54.79,81,100,23.0,overcast clouds,2022-05-17 10:56:46
269,Khani,GE,41.9563,42.9566,63.97,54,50,7.85,scattered clouds,2022-05-17 10:57:12
270,Vila,PT,42.0304,-8.1588,52.68,97,100,5.88,overcast clouds,2022-05-17 10:57:13
271,Pevek,RU,69.7008,170.3133,32.61,97,100,7.29,overcast clouds,2022-05-17 10:57:13
272,Kachiry,KZ,53.0675,76.1036,81.48,26,45,20.54,scattered clouds,2022-05-17 10:57:13
273,Port Huron,US,42.9709,-82.4249,47.21,85,0,5.75,clear sky,2022-05-17 10:57:14
274,Russell,US,32.3502,-85.1999,62.11,73,71,4.99,broken clouds,2022-05-17 10:57:14
275,Salinas,US,36.6777,-121.6555,51.84,79,51,4.41,broken clouds,2022-05-17 10:57:14
276,Ust-Nera,RU,64.5667,143.2,33.73,96,100,1.99,light snow,2022-05-17 10:58:15
277,Shangrao,CN,28.4532,117.9686,66.63,66,100,2.84,overcast clouds,2022-05-17 10:58:15
278,Santander,ES,43.4647,-3.8044,74.52,58,0,5.75,clear sky,2022-05-17 10:54:10
279,Phalodi,IN,27.1333,72.3667,102.99,10,0,5.17,clear sky,2022-05-17 10:58:16
280,Pandan,PH,14.0453,124.1694,82.44,81,99,10.38,overcast clouds,2022-05-17 10:58:16
281,Mazatlan,MX,23.2167,-106.4167,74.91,81,89,6.49,overcast clouds,2022-05-17 10:56:19
282,Tessalit,ML,20.1986,1.0114,101.59,9,1,11.01,clear sky,2022-05-17 10:58:16
283,Auki,SB,-8.7676,160.7034,78.69,82,7,1.99,clear sky,2022-05-17 10:58:17
284,Dingle,PH,10.9995,122.6711,80.4,82,77,2.53,light rain,2022-05-17 10:58:17
285,Grand Falls,CA,47.0461,-67.7418,55.45,97,100,10.94,overcast clouds,2022-05-17 10:58:17
286,Vostok,RU,46.4856,135.8833,48.54,58,57,6.06,broken clouds,2022-05-17 10:58:18
287,Vardo,NO,70.3705,31.1107,37.38,75,100,21.85,overcast clouds,2022-05-17 10:58:18
288,Grajau,BR,-5.8194,-46.1386,77.38,85,57,2.51,broken clouds,2022-05-17 10:58:19
289,Constitucion,CL,-35.3333,-72.4167,52.07,62,0,4.59,clear sky,2022-05-17 10:58:19
290,Airai,TL,-8.9266,125.4092,61.25,91,100,2.37,overcast clouds,2022-05-17 10:58:19
291,Maniitsoq,GL,65.4167,-52.9,32.23,63,2,1.63,clear sky,2022-05-17 10:58:20
292,Padang,ID,-0.9492,100.3543,86.05,82,42,2.84,scattered clouds,2022-05-17 10:58:20
293,Camara De Lobos,PT,32.6333,-16.9667,79.72,74,20,4.61,few clouds,2022-05-17 10:58:20
294,Hamilton,US,39.1834,-84.5333,59.2,79,4,1.01,clear sky,2022-05-17 10:53:52
295,Fortuna,US,40.5982,-124.1573,51.66,88,100,8.05,overcast clouds,2022-05-17 10:58:21
296,Lavrentiya,RU,65.5833,-171.0,18.95,88,52,4.23,broken clouds,2022-05-17 10:58:21
297,Komatipoort,ZA,-25.4332,31.9548,78.04,51,15,5.1,few clouds,2022-05-17 10:58:21
298,Caceres,ES,39.522,-6.3748,77.56,42,13,4.83,few clouds,2022-05-17 10:58:22
299,Hefei,CN,31.8639,117.2808,84.22,16,0,11.18,clear sky,2022-05-17 10:58:22
300,Upernavik,GL,72.7868,-56.1549,11.32,87,46,7.78,scattered clouds,2022-05-17 10:58:22
301,Buenos Aires,AR,-34.6132,-58.3772,52.0,92,75,8.05,light intensity drizzle,2022-05-17 10:54:03
302,Chapleau,CA,47.8405,-83.4034,37.49,93,100,8.05,overcast clouds,2022-05-17 10:55:53
303,Buala,SB,-8.145,159.5921,80.17,81,39,4.21,light rain,2022-05-17 10:58:23
304,Port Blair,IN,11.6667,92.75,77.04,94,100,1.14,drizzle,2022-05-17 10:58:23
305,Kapuskasing,CA,49.4169,-82.4331,37.49,87,100,12.66,overcast clouds,2022-05-17 10:58:24
306,Vidim,RU,56.4088,103.1106,68.34,32,24,8.34,few clouds,2022-05-17 10:58:24
307,La Ronge,CA,55.1001,-105.2842,32.25,80,40,5.75,scattered clouds,2022-05-17 10:58:24
308,Camacha,PT,33.0833,-16.3333,67.42,83,40,10.36,scattered clouds,2022-05-17 10:58:25
309,Mildura,AU,-34.2,142.15,52.07,82,28,0.0,scattered clouds,2022-05-17 10:58:25
310,Pacific Grove,US,36.6177,-121.9166,51.91,88,100,8.99,overcast clouds,2022-05-17 10:53:28
311,Kieta,PG,-6.2167,155.6333,80.42,84,34,4.29,light rain,2022-05-17 10:58:25
312,Cabinda,AO,-5.55,12.2,84.18,70,40,8.1,scattered clouds,2022-05-17 10:58:26
313,Oistins,BB,13.0667,-59.5333,80.69,83,40,23.02,scattered clouds,2022-05-17 10:57:18
314,Moose Factory,CA,51.2585,-80.6094,33.78,86,100,10.36,overcast clouds,2022-05-17 10:58:26
315,Strezhevoy,RU,60.7333,77.5889,62.55,57,68,20.04,light rain,2022-05-17 10:58:26
316,Onokhoy,RU,51.932,108.0747,64.15,55,71,6.04,broken clouds,2022-05-17 10:54:47
317,Ulladulla,AU,-35.35,150.4667,46.76,68,1,8.03,clear sky,2022-05-17 10:58:27
318,Tautira,PF,-17.7333,-149.15,80.06,76,77,9.62,light rain,2022-05-17 10:58:27
319,Palmer,US,42.1584,-72.3287,56.39,74,0,10.36,clear sky,2022-05-17 10:54:02
320,Saint-Paul,RE,-21.0096,55.2707,79.36,73,67,3.18,light rain,2022-05-17 10:58:28
321,Capitan Bado,PY,-23.2667,-55.5333,41.47,86,0,5.57,clear sky,2022-05-17 10:58:28
322,Awjilah,LY,29.1081,21.2869,89.11,18,0,1.03,clear sky,2022-05-17 10:58:28
323,Petropavlovka,RU,50.6114,105.3196,68.14,37,77,9.53,broken clouds,2022-05-17 10:59:29
324,Haibara,JP,34.5333,135.95,63.18,80,100,2.8,overcast clouds,2022-05-17 10:59:29
325,Vila Velha,BR,-20.3297,-40.2925,71.55,94,0,0.0,clear sky,2022-05-17 10:56:58
326,Simimbaan,PH,17.1157,121.5824,79.11,84,98,3.24,heavy intensity rain,2022-05-17 10:59:29
327,Nhulunbuy,AU,-12.2333,136.7667,79.41,73,40,4.61,scattered clouds,2022-05-17 10:59:30
328,Laguna,US,38.421,-121.4238,59.02,79,1,1.01,clear sky,2022-05-17 10:59:30
329,Neuquen,AR,-38.9516,-68.0591,28.29,100,0,0.0,clear sky,2022-05-17 10:59:30
330,Crowley,US,30.2141,-92.3746,74.1,92,4,4.14,clear sky,2022-05-17 10:56:15
331,Neiafu,TO,-18.65,-173.9833,78.42,63,47,18.59,scattered clouds,2022-05-17 10:59:31
332,Altay,CN,47.8667,88.1167,70.0,41,36,4.36,scattered clouds,2022-05-17 10:59:31
333,Nouadhibou,MR,20.931,-17.0347,82.38,36,0,21.85,clear sky,2022-05-17 10:59:32
334,Macas,EC,-2.3167,-78.1167,66.42,93,100,2.93,light rain,2022-05-17 10:59:32
335,Sosnovo-Ozerskoye,RU,52.5249,111.5418,58.8,49,98,15.35,overcast clouds,2022-05-17 10:59:32
336,Lawrence,US,38.9717,-95.2353,61.77,72,60,7.94,broken clouds,2022-05-17 10:57:13
337,Arlit,NE,18.7369,7.3853,101.71,5,0,17.63,clear sky,2022-05-17 10:55:12
338,Tshane,BW,-24.0196,21.8684,72.0,34,5,12.12,clear sky,2022-05-17 10:59:33
339,Port Keats,AU,-14.25,129.55,79.65,78,8,5.57,clear sky,2022-05-17 10:59:33
340,Rio Gallegos,AR,-51.6226,-69.2181,28.45,100,75,1.14,broken clouds,2022-05-17 10:59:33
341,Kapiri Mposhi,ZM,-13.9652,28.6809,74.35,41,3,6.62,clear sky,2022-05-17 10:59:34
342,San Policarpo,PH,12.1791,125.5072,81.99,82,56,9.86,broken clouds,2022-05-17 10:59:34
343,Kuressaare,EE,58.2481,22.5039,48.15,62,75,18.41,broken clouds,2022-05-17 10:59:34
344,Santa Catarina De Tepehuanes,MX,25.35,-105.7333,61.9,60,96,3.71,overcast clouds,2022-05-17 10:59:35
345,Bokoro,TD,12.3807,17.0568,100.35,25,27,10.11,scattered clouds,2022-05-17 10:59:35
346,Ducheng,CN,23.2373,111.5317,73.94,67,25,1.07,scattered clouds,2022-05-17 10:59:36
347,De Panne,BE,51.0792,2.5917,76.19,71,75,5.75,broken clouds,2022-05-17 10:59:36
348,Fairbanks,US,64.8378,-147.7164,39.92,84,62,3.53,broken clouds,2022-05-17 10:58:01
349,Hobyo,SO,5.3505,48.5268,87.62,61,3,26.64,clear sky,2022-05-17 10:59:36
350,Manaure,CO,11.7751,-72.4445,81.41,79,100,12.73,overcast clouds,2022-05-17 10:59:37
351,Veraval,IN,20.9,70.3667,87.73,61,0,14.94,clear sky,2022-05-17 10:59:23
352,Sibolga,ID,1.7427,98.7792,80.67,82,100,0.47,overcast clouds,2022-05-17 10:59:37
353,Dakoro,NE,14.5106,6.765,102.74,5,17,12.33,few clouds,2022-05-17 10:59:37
354,Mwene-Ditu,CD,-7.0,23.45,85.26,41,59,5.14,broken clouds,2022-05-17 10:59:38
355,Paamiut,GL,61.994,-49.6678,34.09,83,37,10.16,scattered clouds,2022-05-17 10:59:38
356,Esna,EG,25.2934,32.554,96.82,8,67,15.59,broken clouds,2022-05-17 10:59:39
357,Tigre,AR,-34.426,-58.5796,52.27,88,75,13.8,light intensity drizzle,2022-05-17 10:59:40
358,Abu Dhabi,AE,24.4667,54.3667,95.11,41,0,10.36,dust,2022-05-17 10:58:57
359,Necochea,AR,-38.5473,-58.7368,51.98,75,100,21.99,overcast clouds,2022-05-17 10:59:41
360,Burgeo,CA,47.6167,-57.6152,42.57,89,100,20.0,overcast clouds,2022-05-17 10:59:41
361,Puerto Escondido,MX,15.85,-97.0667,80.8,70,34,5.14,scattered clouds,2022-05-17 10:59:42
362,Leningradskiy,RU,69.3833,178.4167,25.88,96,100,9.6,overcast clouds,2022-05-17 10:59:42
363,High Level,CA,58.5169,-117.136,48.31,87,100,5.75,overcast clouds,2022-05-17 10:59:43
364,Dwarka,IN,22.2394,68.9678,86.49,69,0,17.07,clear sky,2022-05-17 10:59:43
365,Cameta,BR,-2.2444,-49.4958,76.66,91,89,3.62,overcast clouds,2022-05-17 10:59:44
366,Muros,ES,42.7762,-9.0603,65.68,93,99,7.0,overcast clouds,2022-05-17 10:59:45
367,Akyab,MM,20.15,92.9,86.95,71,19,8.1,few clouds,2022-05-17 10:59:45
368,Clyde River,CA,70.4692,-68.5914,28.63,86,100,9.22,overcast clouds,2022-05-17 11:00:52
369,Ancud,CL,-41.8697,-73.8203,43.72,75,100,8.99,overcast clouds,2022-05-17 11:00:58
370,Laurens,US,32.4502,-82.9165,66.63,80,0,0.0,clear sky,2022-05-17 11:01:01
371,Namibe,AO,-15.1961,12.1522,80.87,51,11,9.69,few clouds,2022-05-17 11:01:03
372,Ginir,ET,7.1333,40.7,77.45,39,36,12.26,scattered clouds,2022-05-17 11:01:04
373,Waipawa,NZ,-41.4122,175.5153,59.27,81,69,10.45,broken clouds,2022-05-17 11:01:05
374,Zhicheng,CN,30.2956,111.5047,70.52,72,100,7.18,overcast clouds,2022-05-17 11:01:07
375,Ahipara,NZ,-35.1667,173.1667,66.45,88,100,15.41,overcast clouds,2022-05-17 11:01:09
376,Stutterheim,ZA,-32.5708,27.424,76.84,29,0,10.25,clear sky,2022-05-17 11:01:10
377,Rio Grande,BR,-32.035,-52.0986,50.11,79,100,26.35,overcast clouds,2022-05-17 11:01:10
378,Schwalbach,DE,49.3,6.8167,78.08,52,97,3.91,overcast clouds,2022-05-17 11:01:11
379,Sept-Iles,CA,50.2001,-66.3821,42.06,91,100,16.11,overcast clouds,2022-05-17 11:01:12
380,Walvis Bay,NA,-22.9575,14.5053,88.75,22,1,13.78,clear sky,2022-05-17 11:01:12
381,Mumford,GH,5.2618,-0.759,84.85,75,74,11.41,broken clouds,2022-05-17 11:01:13
382,Sistranda,NO,63.7256,8.834,49.96,59,22,13.69,few clouds,2022-05-17 11:01:13
383,Wawa,NG,9.9022,4.4192,96.15,39,100,2.89,overcast clouds,2022-05-17 11:01:14
384,Manavalakurichi,IN,8.1333,77.3,80.92,84,100,21.61,light rain,2022-05-17 11:01:14
385,Acarau,BR,-2.8856,-40.12,79.57,86,60,10.98,broken clouds,2022-05-17 11:01:15
386,Antofagasta,CL,-23.65,-70.4,54.68,74,65,5.21,broken clouds,2022-05-17 10:58:32
387,Beira,MZ,-19.8436,34.8389,80.69,69,20,11.5,few clouds,2022-05-17 11:01:15
388,Chicama,PE,-7.8447,-79.1469,63.41,88,91,2.89,overcast clouds,2022-05-17 11:01:16
389,Ostrovnoy,RU,68.0531,39.5131,37.31,64,100,18.25,overcast clouds,2022-05-17 11:01:16
390,Olafsvik,IS,64.8945,-23.7142,47.08,79,100,5.3,overcast clouds,2022-05-17 11:01:16
391,Thompson,CA,55.7435,-97.8558,30.42,87,4,4.59,clear sky,2022-05-17 11:00:49
392,Ngerengere,TZ,-6.75,38.1167,85.59,43,23,10.27,few clouds,2022-05-17 11:01:17
393,Chumikan,RU,54.7183,135.315,31.84,97,100,4.34,overcast clouds,2022-05-17 11:01:17
394,Burgos,ES,42.3394,-3.7079,73.81,56,40,17.27,scattered clouds,2022-05-17 11:01:18
395,Den Helder,NL,52.9599,4.7593,70.02,60,100,4.61,overcast clouds,2022-05-17 11:01:18
396,Cabo San Lucas,MX,22.8909,-109.9124,71.51,70,87,10.0,overcast clouds,2022-05-17 10:56:50
397,Wanning,CN,18.8003,110.3967,76.59,83,90,11.05,overcast clouds,2022-05-17 11:01:18
398,Batemans Bay,AU,-35.7167,150.1833,49.98,77,4,6.93,clear sky,2022-05-17 11:00:04
399,Los Llanos De Aridane,ES,28.6585,-17.9182,69.55,86,75,8.05,broken clouds,2022-05-17 11:01:19
400,Half Moon Bay,US,37.4636,-122.4286,53.11,86,100,14.97,mist,2022-05-17 11:01:19
401,Tuzla,BA,44.5428,18.6694,78.76,57,40,8.05,scattered clouds,2022-05-17 11:01:19
402,Wukari,NG,7.85,9.7833,85.71,60,97,1.03,overcast clouds,2022-05-17 11:01:20
403,Mianyang,CN,31.4593,104.7542,64.27,81,100,11.39,overcast clouds,2022-05-17 11:01:21
404,Luderitz,NA,-26.6481,15.1594,82.76,32,0,12.73,clear sky,2022-05-17 11:01:21
405,Zwedru,LR,6.0667,-8.1281,86.45,63,64,1.72,broken clouds,2022-05-17 11:01:21
406,Kyren,RU,51.6828,102.1408,65.8,50,95,5.03,overcast clouds,2022-05-17 11:01:22
407,Denpasar,ID,-8.65,115.2167,82.06,88,75,4.61,moderate rain,2022-05-17 11:01:22
408,Aksay,RU,47.26,39.87,66.42,55,95,11.99,overcast clouds,2022-05-17 11:01:23
409,Grimshaw,CA,56.1834,-117.6027,41.16,70,100,9.53,overcast clouds,2022-05-17 11:01:23
410,Winnemucca,US,40.973,-117.7357,55.62,52,11,3.6,few clouds,2022-05-17 10:57:17
411,Nsanje,MW,-16.92,35.262,76.33,62,72,9.04,broken clouds,2022-05-17 11:01:23
412,Ust-Tsilma,RU,65.441,52.1498,41.2,68,100,9.04,overcast clouds,2022-05-17 11:01:24
413,La Rioja,ES,42.25,-2.5,69.58,35,1,5.46,clear sky,2022-05-17 11:01:24
414,Poyarkovo,RU,49.6,128.6833,50.45,43,29,5.26,scattered clouds,2022-05-17 11:01:25
415,Kashary,RU,49.04,41.0056,61.34,35,56,19.13,broken clouds,2022-05-17 11:01:25
416,Kilosa,TZ,-6.8333,36.9833,83.17,40,32,10.38,scattered clouds,2022-05-17 11:02:25
417,Fare,PF,-16.7,-151.0167,80.94,74,75,14.05,broken clouds,2022-05-17 11:02:26
418,Caninde De Sao Francisco,BR,-9.66,-37.7894,79.09,75,91,3.96,overcast clouds,2022-05-17 11:02:26
419,Borzya,RU,50.3833,116.5167,66.2,23,59,6.8,broken clouds,2022-05-17 11:02:27
420,Progreso,MX,21.2833,-89.6667,72.1,89,3,4.56,clear sky,2022-05-17 11:02:27
421,Mayahi,NE,13.9553,7.6712,102.42,4,11,12.06,few clouds,2022-05-17 11:02:27
422,Sitka,US,57.0531,-135.33,40.77,92,71,5.01,light rain,2022-05-17 11:02:28
423,Inta,RU,66.0317,60.1659,36.84,93,100,9.8,overcast clouds,2022-05-17 11:02:28
424,Hare Bay,CA,48.8499,-54.0148,42.19,89,100,3.87,overcast clouds,2022-05-17 11:02:28
425,Xichang,CN,27.8964,102.2634,60.03,93,100,1.92,overcast clouds,2022-05-17 11:02:29
426,Breytovo,RU,58.2993,37.8617,52.3,58,79,13.78,broken clouds,2022-05-17 11:02:29
427,Dubai,AE,25.2582,55.3047,87.15,56,0,13.06,clear sky,2022-05-17 11:00:49
428,Morant Bay,JM,17.8815,-76.4093,77.7,87,90,8.81,overcast clouds,2022-05-17 11:02:29
429,Bollnas,SE,61.3482,16.3946,56.77,28,7,3.33,clear sky,2022-05-17 11:02:30
430,Shimanovsk,RU,52.0,127.7,48.42,34,61,3.24,broken clouds,2022-05-17 11:02:30
431,Filadelfia,US,39.9523,-75.1638,59.11,83,0,3.0,clear sky,2022-05-17 11:00:26
432,Urumqi,CN,43.801,87.6005,77.95,21,0,8.95,clear sky,2022-05-17 11:00:08
433,Shaowu,CN,27.3409,117.4831,65.52,72,100,1.48,overcast clouds,2022-05-17 11:02:31
434,Libreville,GA,0.3925,9.4537,86.02,79,40,5.75,scattered clouds,2022-05-17 10:59:43
435,Riyadh,SA,24.6877,46.7219,96.94,9,0,8.01,clear sky,2022-05-17 10:57:52
436,Pangnirtung,CA,66.1451,-65.7125,25.09,79,77,3.83,broken clouds,2022-05-17 11:02:31
437,Vanimo,PG,-2.6741,141.3028,80.22,83,33,5.93,scattered clouds,2022-05-17 11:02:31
438,Det Udom,TH,14.906,105.0784,86.95,82,98,5.01,overcast clouds,2022-05-17 11:02:32
439,Iracoubo,GF,5.4802,-53.2011,78.76,91,100,11.36,overcast clouds,2022-05-17 11:02:32
440,Biak,ID,-0.9131,122.8766,79.0,84,88,1.79,overcast clouds,2022-05-17 11:02:32
441,Otradnyy,RU,53.376,51.3452,58.89,52,61,14.92,light rain,2022-05-17 11:02:33
442,Beloha,MG,-25.1667,45.05,78.55,42,0,16.8,clear sky,2022-05-17 11:02:33
443,Lakatoro,VU,-16.0999,167.4164,78.12,86,43,11.54,scattered clouds,2022-05-17 11:02:33
444,Port Hardy,CA,50.6996,-127.4199,42.98,93,100,2.3,light intensity shower rain,2022-05-17 11:02:34
445,Atar,MR,20.5169,-13.0499,101.07,8,80,16.6,broken clouds,2022-05-17 11:02:24
446,Myitkyina,MM,25.3833,97.4,75.56,94,100,1.81,overcast clouds,2022-05-17 11:02:34
447,Buraydah,SA,26.326,43.975,98.01,12,0,6.35,clear sky,2022-05-17 11:02:35
448,The Valley,AI,18.217,-63.0578,81.1,83,85,17.69,overcast clouds,2022-05-17 11:02:35
449,Kaeo,NZ,-35.1,173.7833,67.32,86,100,12.84,overcast clouds,2022-05-17 11:02:35
450,Samarinda,ID,-0.5,117.15,75.96,87,100,3.0,overcast clouds,2022-05-17 11:02:36
451,Deputatskiy,RU,69.3,139.9,27.46,94,99,2.91,overcast clouds,2022-05-17 11:02:36
452,Verkhnevilyuysk,RU,63.4453,120.3167,38.73,78,97,6.55,overcast clouds,2022-05-17 11:02:36
453,Plettenberg Bay,ZA,-34.0527,23.3716,78.69,41,3,3.58,clear sky,2022-05-17 11:02:37
454,Mehamn,NO,71.0357,27.8492,37.31,82,99,24.16,light rain,2022-05-17 11:02:37
455,Saldanha,ZA,-33.0117,17.9442,74.23,36,4,3.6,clear sky,2022-05-17 11:02:37
456,Luganville,VU,-15.5333,167.1667,77.41,88,41,6.29,scattered clouds,2022-05-17 11:02:38
457,Kruisfontein,ZA,-34.0033,24.7314,86.99,18,0,8.37,clear sky,2022-05-17 11:02:38
458,Ipixuna,BR,-1.7625,-48.8043,75.76,89,92,3.94,overcast clouds,2022-05-17 11:02:38
459,Pimentel,PE,-6.8367,-79.9342,63.5,89,95,7.14,overcast clouds,2022-05-17 11:02:39
460,Uruacu,BR,-14.5247,-49.1408,71.24,70,29,8.32,scattered clouds,2022-05-17 11:02:39
461,Kenora,CA,49.8167,-94.4337,35.78,93,9,3.0,clear sky,2022-05-17 11:03:39
462,Mansa,IN,29.9833,75.3833,109.96,6,10,12.62,clear sky,2022-05-17 11:03:40
463,Ghanzi,BW,-21.5667,21.7833,72.75,33,0,11.99,clear sky,2022-05-17 11:03:40
464,Yulara,AU,-25.2406,130.9889,69.64,29,100,9.95,overcast clouds,2022-05-17 11:03:41
465,Najran,SA,17.4924,44.1277,89.82,6,0,14.07,clear sky,2022-05-17 11:03:41
466,Hounde,BF,11.5,-3.5167,101.16,25,40,3.42,scattered clouds,2022-05-17 11:01:36
467,Monrovia,LR,6.3005,-10.7969,83.98,75,71,3.76,broken clouds,2022-05-17 11:03:41
468,Madimba,TZ,-10.4,40.3333,85.39,52,11,10.58,few clouds,2022-05-17 11:03:42
469,Okhotsk,RU,59.3833,143.3,32.79,98,100,6.42,overcast clouds,2022-05-17 11:03:42
470,Ucluelet,CA,48.9329,-125.5528,43.09,91,100,1.03,overcast clouds,2022-05-17 11:03:42
471,Cosina,PH,8.1061,124.6197,74.26,97,92,2.59,overcast clouds,2022-05-17 11:03:43
472,Erenhot,CN,43.6475,111.9767,68.76,18,2,9.01,clear sky,2022-05-17 11:03:43
473,Pyinmana,MM,19.7333,96.2167,90.72,53,68,10.18,broken clouds,2022-05-17 11:03:43
474,Alta Floresta,BR,-9.8756,-56.0861,68.43,87,87,5.91,overcast clouds,2022-05-17 11:03:44
475,San Cristobal,VE,7.7669,-72.225,71.78,97,100,4.23,overcast clouds,2022-05-17 11:00:52
476,Sooke,CA,48.3746,-123.7276,49.06,77,98,7.72,overcast clouds,2022-05-17 11:03:44
477,Plover,US,44.4564,-89.544,43.36,88,0,1.01,clear sky,2022-05-17 11:03:44
478,Venado Tuerto,AR,-33.7456,-61.9688,45.77,86,20,12.3,few clouds,2022-05-17 11:03:45
479,Prince Rupert,CA,54.3161,-130.3201,39.63,83,95,7.67,overcast clouds,2022-05-17 11:03:45
480,Baoqing,CN,46.3317,132.2111,53.92,76,83,7.47,broken clouds,2022-05-17 11:03:46
481,Kerman,IR,30.2832,57.0788,88.83,6,0,2.89,clear sky,2022-05-17 11:03:46
482,Inhambane,MZ,-23.865,35.3833,78.78,69,75,16.11,broken clouds,2022-05-17 11:03:46
483,Puerto Lempira,HN,15.2667,-83.7667,78.15,84,100,4.29,overcast clouds,2022-05-17 11:03:47
484,Bulgan,MN,48.8125,103.5347,66.76,31,100,4.97,overcast clouds,2022-05-17 11:03:47
485,Katsuura,JP,35.1333,140.3,59.7,84,100,5.41,moderate rain,2022-05-17 11:03:47
486,Tabou,CI,4.423,-7.3528,80.76,80,96,5.48,overcast clouds,2022-05-17 11:03:48
487,Vuktyl,RU,63.8567,57.3094,41.86,75,100,8.63,overcast clouds,2022-05-17 11:03:48
488,Soderhamn,SE,61.3037,17.0592,52.95,40,8,8.39,clear sky,2022-05-17 11:03:48
489,Vanavara,RU,60.34,102.2797,67.32,37,89,9.26,overcast clouds,2022-05-17 11:03:49
490,Mount Gambier,AU,-37.8333,140.7667,52.25,84,85,12.1,light rain,2022-05-17 11:02:06
491,Phan Thiet,VN,10.9333,108.1,81.14,85,96,10.56,overcast clouds,2022-05-17 11:03:49
492,Bandarbeyla,SO,9.4942,50.8122,96.44,40,12,19.24,few clouds,2022-05-17 11:03:50
493,Ati,TD,13.2154,18.3353,101.25,19,54,13.27,broken clouds,2022-05-17 11:03:50
494,Kampong Cham,KH,11.9934,105.4635,84.7,75,97,6.6,overcast clouds,2022-05-17 11:03:50
495,Visnes,NO,59.3556,5.2242,64.45,29,0,12.66,clear sky,2022-05-17 11:03:51
496,Ryazan,RU,54.6197,39.74,45.37,94,100,14.29,light rain,2022-05-17 11:03:39
497,Ondangwa,NA,-17.9167,15.95,78.46,21,3,11.65,clear sky,2022-05-17 11:03:51
498,Broome,US,42.2506,-75.833,52.86,87,75,6.91,broken clouds,2022-05-17 11:03:51
499,Farrukhnagar,IN,17.0778,78.2011,91.11,43,96,7.2,overcast clouds,2022-05-17 11:03:52
500,Nador,MA,35.174,-2.9287,79.05,36,0,6.91,clear sky,2022-05-17 11:03:52
501,Fort Saint James,CA,54.4333,-124.25,32.5,69,43,3.29,scattered clouds,2022-05-17 11:03:52
502,Ferrol,ES,43.4832,-8.2369,66.72,83,100,11.36,overcast clouds,2022-05-17 11:03:53
503,Angoram,PG,-4.0625,144.0661,75.67,88,65,2.68,broken clouds,2022-05-17 11:03:53
504,Plouzane,FR,48.3833,-4.6167,73.72,68,0,18.41,clear sky,2022-05-17 11:03:54
505,Moyale,KE,3.5167,39.0584,76.17,57,91,12.59,overcast clouds,2022-05-17 11:03:54
506,Tavda,RU,58.0425,65.2726,64.15,51,100,8.81,overcast clouds,2022-05-17 11:04:54
507,Terney,RU,45.0503,136.6092,49.39,73,17,6.96,few clouds,2022-05-17 11:04:55
508,Eenhana,NA,-17.4667,16.3333,80.01,20,4,8.72,clear sky,2022-05-17 11:04:55
509,Sao Filipe,CV,14.8961,-24.4956,79.63,58,83,8.03,broken clouds,2022-05-17 11:04:55
510,Takaka,NZ,-40.85,172.8,57.56,89,27,6.13,scattered clouds,2022-05-17 11:04:56
511,Hyderabad,IN,17.3753,78.4744,93.61,55,75,5.75,broken clouds,2022-05-17 11:01:15
512,Alenquer,BR,-1.9417,-54.7383,75.22,95,100,3.2,overcast clouds,2022-05-17 11:04:56
513,Diamantino,BR,-14.4086,-56.4461,62.19,67,93,10.16,overcast clouds,2022-05-17 11:04:57
514,San Gabriel Casa Blanca,MX,18.15,-97.1333,63.97,64,5,0.69,clear sky,2022-05-17 11:04:57
515,Swift Current,CA,50.2834,-107.8014,53.42,52,88,13.04,overcast clouds,2022-05-17 11:00:07
516,Dalbandin,PK,28.8947,64.4101,103.21,3,0,15.64,clear sky,2022-05-17 11:04:57
517,Kiunga,PG,-6.1219,141.2906,74.25,98,71,2.28,broken clouds,2022-05-17 11:04:58
518,Oyama,JP,36.3,139.8,66.58,84,100,3.4,overcast clouds,2022-05-17 11:04:58
519,Ferme-Neuve,CA,46.7001,-75.4493,49.01,95,100,11.72,light rain,2022-05-17 11:04:58
520,Napa,US,38.4832,-122.3344,53.38,71,0,2.35,clear sky,2022-05-17 11:04:59
521,Fuerte Olimpo,PY,-21.0415,-57.8738,46.78,67,2,6.17,clear sky,2022-05-17 11:04:59
522,Visegrad,BA,43.7847,19.2992,80.67,43,42,5.79,scattered clouds,2022-05-17 11:04:59
523,Barretos,BR,-20.5572,-48.5678,54.59,77,53,8.75,broken clouds,2022-05-17 11:01:34
524,Alyangula,AU,-13.8483,136.4192,79.25,73,7,12.97,clear sky,2022-05-17 11:05:00
525,Sosua,DO,19.7667,-70.5167,75.18,94,20,0.0,few clouds,2022-05-17 11:05:00
526,Xining,CN,36.6167,101.7667,62.94,26,100,15.64,overcast clouds,2022-05-17 11:05:01
527,Nakama,JP,33.8167,130.7,69.15,61,1,1.99,clear sky,2022-05-17 11:05:01
528,Sobolevo,RU,54.4299,31.8996,52.18,56,48,13.06,light rain,2022-05-17 11:05:01
529,Chulumani,BO,-16.4096,-67.5263,57.49,97,99,1.23,overcast clouds,2022-05-17 11:05:02
530,Mackay,AU,-21.15,149.2,69.67,84,13,7.78,few clouds,2022-05-17 11:05:02
531,Rognan,NO,67.0953,15.3878,42.76,70,93,3.13,light rain,2022-05-17 11:05:02
532,Khatanga,RU,71.9667,102.5,35.08,95,100,13.31,overcast clouds,2022-05-17 11:05:03
533,Piacabucu,BR,-10.4056,-36.4344,80.6,81,84,5.1,broken clouds,2022-05-17 11:05:03
534,Abatskoye,RU,56.2875,70.4555,63.25,52,88,19.08,light rain,2022-05-17 11:05:04
535,Yuryevets,RU,57.3201,43.1041,48.85,85,95,3.4,light rain,2022-05-17 11:05:04
536,Mount Kisco,US,41.2043,-73.7271,58.82,83,0,1.01,clear sky,2022-05-17 11:05:04
537,Karasuk,RU,53.7377,78.0403,82.45,26,7,20.94,clear sky,2022-05-17 11:05:05
538,Arinos,BR,-15.9169,-46.1056,70.86,71,31,4.36,scattered clouds,2022-05-17 11:03:19
539,Severo-Yeniseyskiy,RU,60.3725,93.0408,62.56,67,76,9.28,broken clouds,2022-05-17 11:05:05
540,Manono,CD,-7.3,27.4167,88.81,37,69,7.43,broken clouds,2022-05-17 11:02:19
541,Naze,JP,28.3667,129.4833,65.08,81,100,10.69,overcast clouds,2022-05-17 11:05:05
542,Tomatlan,MX,19.9333,-105.25,69.84,77,100,1.99,overcast clouds,2022-05-17 11:05:06
543,Tiksi,RU,71.6872,128.8694,27.52,96,100,12.86,light snow,2022-05-17 11:05:06
544,Mana,GF,5.6592,-53.7767,78.67,91,100,10.4,light rain,2022-05-17 11:05:07
545,Vaitape,PF,-16.5167,-151.75,81.0,74,83,14.85,broken clouds,2022-05-17 11:05:07
546,Jalu,LY,29.0331,21.5482,89.4,18,0,0.63,clear sky,2022-05-17 11:05:07
547,Martapura,ID,-3.4167,114.85,84.29,84,40,4.61,scattered clouds,2022-05-17 11:05:08
548,Tambun,ID,-6.2641,107.0712,87.04,71,100,4.9,overcast clouds,2022-05-17 11:05:08
549,Juneau,US,58.3019,-134.4197,44.22,94,94,5.01,overcast clouds,2022-05-17 11:03:14
550,Agadez,NE,19.75,10.25,94.62,9,0,13.53,clear sky,2022-05-17 11:05:08
551,Takoradi,GH,4.8845,-1.7554,84.49,75,79,7.52,broken clouds,2022-05-17 11:05:09
552,Cabedelo,BR,-6.9811,-34.8339,81.27,81,88,14.2,overcast clouds,2022-05-17 11:05:09
553,Longyan,CN,25.1072,117.0225,67.1,75,82,2.19,broken clouds,2022-05-17 11:06:09
554,Santa Isabel Do Rio Negro,BR,-0.4139,-65.0192,73.87,99,100,1.23,overcast clouds,2022-05-17 11:06:10
555,Dunda,TZ,-8.1167,34.25,82.44,32,53,8.03,broken clouds,2022-05-17 11:06:10
556,Kansk,RU,56.2017,95.7175,74.64,39,85,9.31,overcast clouds,2022-05-17 11:06:11
557,Uzhur,RU,55.3036,89.8339,75.51,33,76,16.82,broken clouds,2022-05-17 11:06:11
558,Gouyave,GD,12.1646,-61.7296,80.22,83,100,18.14,overcast clouds,2022-05-17 11:06:11
559,Mayya,RU,61.7333,130.2811,43.92,92,97,3.96,overcast clouds,2022-05-17 11:06:12
560,Havelock,US,34.8791,-76.9013,67.98,95,14,5.64,few clouds,2022-05-17 11:02:58
561,Hailin,CN,44.5833,129.4167,54.93,71,98,5.73,overcast clouds,2022-05-17 11:06:12
562,Komsomolskiy,UZ,40.4272,71.7189,88.52,20,0,2.3,clear sky,2022-05-17 11:06:12
563,Henderson,US,36.0397,-114.9819,77.38,19,0,11.5,clear sky,2022-05-17 11:01:22
564,Ornskoldsvik,SE,63.2909,18.7153,49.15,34,27,5.75,scattered clouds,2022-05-17 11:06:13
565,Naples,IT,40.8333,14.25,83.26,69,20,9.22,few clouds,2022-05-17 11:06:13
566,Ileza,RU,61.0533,43.9002,44.91,62,100,10.89,overcast clouds,2022-05-17 11:06:13
567,Cap Malheureux,MU,-19.9842,57.6142,79.47,62,9,8.99,clear sky,2022-05-17 11:06:14
568,Mayumba,GA,-3.432,10.6554,81.84,79,93,6.15,light rain,2022-05-17 11:06:14
569,Solano,US,38.2333,-121.9511,55.9,79,0,16.11,clear sky,2022-05-17 11:06:15
570,Cam Ranh,VN,11.9214,109.1591,82.36,74,40,9.22,scattered clouds,2022-05-17 11:06:15
571,Pokhara,NP,28.2333,83.9833,80.94,48,71,6.4,broken clouds,2022-05-17 11:01:45
572,Romny,UA,50.751,33.4747,56.34,61,48,14.03,light rain,2022-05-17 11:06:15
573,Port-Cartier,CA,50.0334,-66.8654,41.76,97,100,23.24,light rain,2022-05-17 11:06:16
574,Oksfjord,NO,70.2396,22.3479,41.07,99,100,8.32,light rain,2022-05-17 11:06:16
575,Gravdal,NO,68.1214,13.5031,36.88,94,100,20.74,light rain,2022-05-17 11:06:16
576,Thasra,IN,22.8,73.2167,107.13,11,4,16.42,clear sky,2022-05-17 11:06:17
577,Palimbang,PH,6.2106,124.1894,81.45,83,95,1.48,light rain,2022-05-17 11:06:17
578,Itoman,JP,26.1247,127.6694,69.82,92,75,13.8,broken clouds,2022-05-17 11:06:17
579,Les Cayes,HT,18.2,-73.75,76.68,86,94,3.51,overcast clouds,2022-05-17 11:06:18
580,Peru,US,40.7537,-86.0689,55.8,79,23,6.2,few clouds,2022-05-17 11:02:07
581,Linfen,CN,36.0889,111.5189,80.65,16,10,3.98,clear sky,2022-05-17 11:06:18
582,Concepcion,CL,-36.827,-73.0498,47.46,65,1,7.74,clear sky,2022-05-17 11:03:21
583,Mount Isa,AU,-20.7333,139.5,71.37,49,5,6.91,clear sky,2022-05-17 11:06:19
584,Cary,US,35.7915,-78.7811,57.2,93,20,0.0,few clouds,2022-05-17 11:05:14
585,Santa Cruz Del Norte,CU,23.1539,-81.9236,76.64,78,0,1.79,clear sky,2022-05-17 11:06:19
586,Saint-Paul-Les-Dax,FR,43.7272,-1.0516,88.02,63,0,5.99,clear sky,2022-05-17 11:06:19
587,Mandalgovi,MN,45.7625,106.2708,69.26,16,100,1.54,overcast clouds,2022-05-17 11:06:20
588,Payo,ID,-3.7508,103.6372,79.99,85,46,2.8,scattered clouds,2022-05-17 11:06:20
589,Primero De Enero,CU,21.9469,-78.4283,73.56,94,100,4.63,overcast clouds,2022-05-17 11:06:20
590,Magadan,RU,59.5667,150.8,34.68,99,100,5.95,overcast clouds,2022-05-17 11:06:21
591,Jinji,CN,23.2281,110.8261,72.61,74,43,2.82,scattered clouds,2022-05-17 11:05:17
592,Okha,RU,53.5739,142.9478,34.84,99,91,7.27,overcast clouds,2022-05-17 11:04:42
593,Sur,OM,22.5667,59.5289,97.25,24,0,5.82,clear sky,2022-05-17 11:02:20
594,Ishigaki,JP,24.3448,124.1572,75.33,76,92,21.59,overcast clouds,2022-05-17 11:06:21
595,Melbu,NO,68.5044,14.8297,35.42,87,75,9.22,moderate rain,2022-05-17 11:06:22
596,Emba,KZ,48.8264,58.1442,67.1,36,72,15.55,broken clouds,2022-05-17 11:06:22
597,Orcopampa,PE,-15.2661,-72.3417,40.75,52,47,1.77,scattered clouds,2022-05-17 11:06:22
598,Tanete,ID,-3.9443,119.7848,77.27,94,98,3.29,overcast clouds,2022-05-17 11:06:23
599,Illapel,CL,-31.6308,-71.1653,57.81,51,0,1.57,clear sky,2022-05-17 11:06:23
600,Huron,US,41.1501,-82.5499,54.97,85,40,7.14,scattered clouds,2022-05-17 11:06:23
601,Djibo,BF,14.1022,-1.6306,97.95,9,63,7.74,broken clouds,2022-05-17 11:07:24
602,Abonnema,NG,4.7084,6.7931,91.89,51,92,2.73,overcast clouds,2022-05-17 11:07:24
603,Tifton,US,31.4505,-83.5085,67.96,92,0,0.0,clear sky,2022-05-17 11:02:40
604,Singkawang,ID,0.9,109.0,80.15,85,100,4.92,overcast clouds,2022-05-17 11:07:24
605,Srednekolymsk,RU,67.45,153.6833,36.79,91,28,3.91,scattered clouds,2022-05-17 11:07:25
606,Asadabad,IR,34.7824,48.1185,80.55,19,29,14.12,scattered clouds,2022-05-17 11:07:25
607,Pietarsaari,FI,63.65,22.6833,42.93,86,100,14.05,overcast clouds,2022-05-17 11:07:26
608,Chinhoyi,ZW,-17.3667,30.2,74.52,36,76,3.06,broken clouds,2022-05-17 11:07:26
609,Fort-Shevchenko,KZ,44.5086,50.263,64.04,58,28,9.42,scattered clouds,2022-05-17 11:07:26
610,Sabha,LY,27.0377,14.4283,91.11,10,0,6.6,clear sky,2022-05-17 11:07:27
611,Musiri,IN,10.9333,78.45,82.44,53,98,10.45,light rain,2022-05-17 11:07:27
612,Leh,IN,34.1667,77.5833,56.34,23,61,8.7,broken clouds,2022-05-17 11:07:27
613,Rocha,UY,-34.4833,-54.3333,50.47,92,80,22.82,broken clouds,2022-05-17 11:07:28
614,Talcher,IN,20.95,85.2167,90.9,56,14,26.89,few clouds,2022-05-17 11:07:28
615,Turukhansk,RU,65.8167,87.9833,52.5,80,100,12.57,overcast clouds,2022-05-17 11:07:28
616,Tra Vinh,VN,9.9347,106.3453,83.46,76,78,7.63,light rain,2022-05-17 11:07:29
617,Mari-Turek,RU,56.7895,49.6235,56.73,58,81,6.35,broken clouds,2022-05-17 11:07:29
618,Tupik,RU,54.4253,119.9327,53.19,42,93,4.34,overcast clouds,2022-05-17 11:07:29
619,Zapolyarnyy,RU,69.4154,30.8136,36.68,67,99,18.97,overcast clouds,2022-05-17 11:07:30
620,Alofi,NU,-19.0595,-169.9187,77.5,64,13,19.06,few clouds,2022-05-17 11:07:30
621,Teahupoo,PF,-17.8333,-149.2667,69.76,77,76,10.36,light rain,2022-05-17 11:07:30
622,Bukachacha,RU,52.9833,116.9167,61.52,29,85,0.65,overcast clouds,2022-05-17 11:07:31
623,Nanguneri,IN,8.4933,77.6581,90.61,64,99,11.63,overcast clouds,2022-05-17 11:07:31
624,Nome,US,64.5011,-165.4064,28.47,60,0,10.36,clear sky,2022-05-17 11:07:31
625,Aksaray,TR,38.3726,34.0254,69.01,42,40,7.27,light rain,2022-05-17 11:07:30
626,Hadishahr,AZ,38.8431,45.6635,72.09,45,47,3.09,scattered clouds,2022-05-17 11:07:32
627,Yatou,CN,37.15,122.3833,59.67,76,63,11.03,broken clouds,2022-05-17 11:07:32
628,Adrar,MR,20.5022,-10.0711,97.61,7,19,16.44,few clouds,2022-05-17 11:07:33
629,Xuddur,SO,4.1213,43.8894,90.28,38,71,20.27,broken clouds,2022-05-17 11:07:33
630,Nelson Bay,AU,-32.7167,152.15,60.01,91,0,10.16,clear sky,2022-05-17 11:07:33
631,Bejucal,CU,22.9286,-82.3886,71.58,88,6,3.31,clear sky,2022-05-17 11:07:34
632,Tiarei,PF,-17.5333,-149.3333,75.22,75,65,10.56,light rain,2022-05-17 11:07:34
633,Fiumicino,IT,41.7675,12.2291,87.64,54,0,11.5,clear sky,2022-05-17 11:07:34
634,Kedrovyy,RU,56.1667,91.8167,66.61,36,77,7.78,broken clouds,2022-05-17 11:07:35
635,Roald,NO,62.5833,6.1333,65.32,51,0,6.91,clear sky,2022-05-17 11:07:35
636,Camacupa,AO,-12.0167,17.4833,76.75,31,2,4.18,clear sky,2022-05-17 11:07:36
637,Kuching,MY,1.55,110.3333,80.82,89,20,5.01,few clouds,2022-05-17 11:07:36
638,Batagay-Alyta,RU,67.8006,130.4114,27.52,94,99,2.04,overcast clouds,2022-05-17 11:07:36
639,Flin Flon,CA,54.7682,-101.865,33.17,84,15,4.72,few clouds,2022-05-17 11:07:37
640,Eregli,TR,37.5133,34.0467,69.67,39,26,9.04,scattered clouds,2022-05-17 11:07:37
641,Barkhera,IN,28.45,79.8,109.29,9,58,6.15,broken clouds,2022-05-17 11:07:37
642,Kidal,ML,18.4411,1.4078,102.4,9,3,15.9,clear sky,2022-05-17 11:07:38
643,Beyneu,KZ,45.3167,55.2,69.98,38,77,12.15,broken clouds,2022-05-17 11:07:38
644,Lodwar,KE,3.1191,35.5973,93.78,30,7,7.99,clear sky,2022-05-17 11:07:38
645,Prainha,BR,-1.8,-53.48,74.7,97,99,1.77,heavy intensity rain,2022-05-17 11:08:39
646,Kwinana,AU,-32.25,115.7667,69.82,79,82,8.16,broken clouds,2022-05-17 11:07:15
647,Linxia,CN,35.6003,103.2064,64.78,45,100,14.5,overcast clouds,2022-05-17 11:08:39
648,Macomb,US,40.4592,-90.6718,57.02,82,0,4.61,clear sky,2022-05-17 11:06:36
649,Agadir,MA,30.4202,-9.5982,72.05,60,0,7.52,clear sky,2022-05-17 11:08:39
650,Puerto Quijarro,BO,-17.7833,-57.7667,59.72,48,84,6.08,broken clouds,2022-05-17 11:08:40
651,Minyar,RU,55.0709,57.5485,57.97,69,88,6.98,light rain,2022-05-17 11:08:40
652,Barabai,ID,-2.5833,115.3833,76.75,95,93,1.86,overcast clouds,2022-05-17 11:08:40
653,Miraflores,MX,19.2167,-98.8083,61.03,45,3,2.15,clear sky,2022-05-17 11:08:41
654,Xanlar,AZ,40.5869,46.3158,63.91,52,75,13.8,broken clouds,2022-05-17 11:08:41
655,Gomel,BY,52.4345,30.9754,57.18,33,0,15.66,clear sky,2022-05-17 11:04:48
656,Mackenzie,CA,55.2999,-123.1698,29.41,88,42,3.38,scattered clouds,2022-05-17 11:05:07
657,Prieska,ZA,-29.6641,22.7474,73.2,35,0,3.65,clear sky,2022-05-17 11:08:42
658,Pontiac,US,42.6389,-83.2911,51.01,71,0,6.91,clear sky,2022-05-17 11:07:28
659,La Crosse,US,43.8014,-91.2396,50.41,88,0,1.01,clear sky,2022-05-17 11:08:42
660,Ouesso,CG,1.6136,16.0517,94.3,42,99,1.32,overcast clouds,2022-05-17 11:08:42
661,Bayir,TR,37.2687,28.2167,79.32,31,0,9.75,light rain,2022-05-17 11:08:43
662,Shubarshi,KZ,48.5872,57.1869,67.82,33,92,17.09,overcast clouds,2022-05-17 11:08:43
663,Kudahuvadhoo,MV,2.6708,72.8944,83.34,78,94,22.1,overcast clouds,2022-05-17 11:08:43
664,Atagay,RU,55.1033,99.3875,71.29,39,92,4.74,overcast clouds,2022-05-17 11:08:44
665,Garowe,SO,8.4054,48.4845,96.94,24,5,21.32,clear sky,2022-05-17 11:08:44
666,Adre,TD,13.4667,22.2,96.15,13,95,11.41,overcast clouds,2022-05-17 11:08:44
667,Pitimbu,BR,-7.4706,-34.8086,81.19,81,72,13.22,broken clouds,2022-05-17 11:08:45
668,Vao,NC,-22.6667,167.4833,74.3,76,24,16.64,few clouds,2022-05-17 11:08:45
669,Shasta Lake,US,40.6804,-122.3708,59.72,74,0,5.84,clear sky,2022-05-17 11:08:45
670,Northam,GB,51.0333,-4.2167,68.67,72,93,17.6,overcast clouds,2022-05-17 11:08:46
671,Inuvik,CA,68.3499,-133.7218,29.16,93,100,10.36,light snow,2022-05-17 11:08:46
672,Bud,US,39.447,-86.1758,58.98,83,3,7.38,clear sky,2022-05-17 11:08:47
673,Kloulklubed,PW,7.0419,134.2556,79.3,76,4,17.72,clear sky,2022-05-17 11:08:47
674,Quelimane,MZ,-17.8786,36.8883,73.27,90,79,5.21,light rain,2022-05-17 11:08:47
675,San Isidro,PE,-12.1167,-77.05,60.39,88,75,4.61,broken clouds,2022-05-17 11:08:48
676,Khanpur,PK,28.6453,70.6567,111.09,7,0,8.37,clear sky,2022-05-17 11:08:48
677,Blenheim,NZ,-41.516,173.9528,53.53,85,37,8.3,scattered clouds,2022-05-17 11:08:48
678,Wonthaggi,AU,-38.6044,145.5913,55.81,65,76,20.62,broken clouds,2022-05-17 11:08:49
679,Odesskoye,RU,54.2111,72.9651,71.19,32,79,20.96,broken clouds,2022-05-17 11:08:49
680,Santa Teresa,VE,10.2341,-66.6631,80.42,96,78,0.54,broken clouds,2022-05-17 11:08:49
681,Kingman,US,35.1894,-114.053,71.89,18,0,10.36,clear sky,2022-05-17 11:08:50
682,Nosy Varika,MG,-20.5833,48.5333,72.48,79,90,11.74,light rain,2022-05-17 11:08:50
683,Bitlis,TR,38.5,42.25,60.4,47,26,9.26,scattered clouds,2022-05-17 11:08:50
684,Dongsheng,CN,39.8161,109.9776,70.02,14,84,15.14,broken clouds,2022-05-17 11:08:51
685,Churapcha,RU,62.0025,132.4325,41.41,69,100,4.27,overcast clouds,2022-05-17 11:08:51
686,Patacamaya,BO,-17.2333,-67.9167,37.26,44,43,5.44,scattered clouds,2022-05-17 11:08:51
687,Mathbaria,BD,22.2876,89.9593,90.52,62,12,13.71,few clouds,2022-05-17 11:08:52
688,Newton,US,42.337,-71.2092,59.99,74,0,17.27,clear sky,2022-05-17 11:08:52
689,Avera,US,33.194,-82.5271,61.38,70,24,7.2,few clouds,2022-05-17 11:08:53
690,Jacareacanga,BR,-6.2222,-57.7528,72.79,100,100,1.7,moderate rain,2022-05-17 11:08:53
691,Aitape,PG,-3.1374,142.3475,80.91,83,43,5.01,scattered clouds,2022-05-17 11:08:53
692,Lata,PT,40.1629,-8.3327,78.49,49,43,8.28,scattered clouds,2022-05-17 11:09:54
693,Sinnamary,GF,5.3833,-52.95,79.2,90,100,11.27,light rain,2022-05-17 11:09:54
